















Status,Note On,Delta,239,Note,3octaveF#,Intensity,84,332200,
Status,Note Off,Delta,11,Note,3octaveF#,Intensity,0,332211,Status,Note On,Delta,85,Note,3octaveF#,Intensity,88,332296,Status,Note Off,Delta,11,Note,3octaveF#,Intensity,0,332307,Status,Note On,Delta,85,Note,3octaveF#,Intensity,88,332392,Status,Note Off,Delta,11,Note,3octaveF#,Intensity,0,332403,Status,Note On,Delta,85,Note,3octaveF#,Intensity,92,332488,Status,Note Off,Delta,11,Note,3octaveF#,Intensity,0,332499,Status,Note On,Delta,85,Note,3octaveC,Intensity,83,332584,
Status,Note Off,Delta,11,Note,3octaveC,Intensity,0,332595,Status,Note On,Delta,37,Note,3octaveE,Intensity,52,332632,Status,Note Off,Delta,11,Note,3octaveE,Intensity,0,332643,Status,Note On,Delta,5,Note,3octaveE,Intensity,40,332648,Status,Note Off,Delta,11,Note,3octaveE,Intensity,0,332659,Status,Note On,Delta,5,Note,3octaveE,Intensity,40,332664,Status,Note Off,Delta,11,Note,3octaveE,Intensity,0,332675,Status,Note On,Delta,5,Note,3octaveE,Intensity,75,332680,Status,Note Off,Delta,11,Note,3octaveE,Intensity,0,332691,Status,Note On,Delta,13,Note,3octaveC,Intensity,81,332704,Status,Note Off,Delta,11,Note,3octaveC,Intensity,0,332715,Status,Note On,Delta,61,Note,3octaveE,Intensity,75,332776,Status,Note Off,Delta,11,Note,3octaveE,Intensity,0,332787,Status,Note On,Delta,13,Note,3octaveE,Intensity,46,332800,Status,Note Off,Delta,11,Note,3octaveE,Intensity,0,332811,Status,Note On,Delta,13,Note,3octaveE,Intensity,75,332824,Status,Note Off,Delta,11,Note,3octaveE,Intensity,0,332835,Status,Note On,Delta,13,Note,3octaveE,Intensity,49,332848,Status,Note Off,Delta,11,Note,3octaveE,Intensity,0,332859,Status,Note On,Delta,13,Note,3octaveE,Intensity,75,332872,Status,Note Off,Delta,11,Note,3octaveE,Intensity,0,332883,Status,Note On,Delta,13,Note,3octaveC,Intensity,75,332896,Status,Note Off,Delta,11,Note,3octaveC,Intensity,0,332907,Status,Note On,Delta,61,Note,3octaveF#,Intensity,75,332968,
Status,Note On,Delta,0,Note,3octaveC,Intensity,85,332968,Status,Note Off,Delta,11,Note,3octaveF#,Intensity,0,332979,Status,Note Off,Delta,0,Note,3octaveC,Intensity,0,332979,Status,Note On,Delta,13,Note,3octaveF#,Intensity,25,332992,Status,Note Off,Delta,11,Note,3octaveF#,Intensity,0,333003,Status,Note On,Delta,13,Note,3octaveF#,Intensity,40,333016,Status,Note Off,Delta,11,Note,3octaveF#,Intensity,0,333027,Status,Note On,Delta,13,Note,3octaveF#,Intensity,66,333040,Status,Note Off,Delta,11,Note,3octaveF#,Intensity,0,333051,Status,Note On,Delta,13,Note,3octaveF#,Intensity,46,333064,Status,Note On,Delta,0,Note,3octaveE,Intensity,75,333064,Status,Note Off,Delta,11,Note,3octaveF#,Intensity,0,333075,Status,Note Off,Delta,0,Note,3octaveE,Intensity,0,333075,Status,Note On,Delta,13,Note,3octaveF#,Intensity,59,333088,Status,Note Off,Delta,11,Note,3octaveF#,Intensity,0,333099,Status,Note On,Delta,13,Note,3octaveF#,Intensity,44,333112,Status,Note Off,Delta,11,Note,3octaveF#,Intensity,0,333123,Status,Note On,Delta,13,Note,3octaveF#,Intensity,23,333136,Status,Note On,Delta,0,Note,3octaveC,Intensity,47,333136,Status,Note Off,Delta,11,Note,3octaveF#,Intensity,0,333147,Status,Note Off,Delta,0,Note,3octaveC,Intensity,0,333147,Status,Note On,Delta,13,Note,3octaveF#,Intensity,75,333160,Status,Note On,Delta,0,Note,3octaveC,Intensity,74,333160,Status,Note Off,Delta,11,Note,3octaveF#,Intensity,0,333171,Status,Note Off,Delta,0,Note,3octaveC,Intensity,0,333171,Status,Note On,Delta,13,Note,3octaveF#,Intensity,11,333184,Status,Note Off,Delta,11,Note,3octaveF#,Intensity,0,333195,Status,Note On,Delta,13,Note,3octaveF#,Intensity,51,333208,Status,Note Off,Delta,11,Note,3octaveF#,Intensity,0,333219,Status,Note On,Delta,13,Note,3octaveF#,Intensity,58,333232,Status,Note Off,Delta,11,Note,3octaveF#,Intensity,0,333243,Status,Note On,Delta,13,Note,3octaveF#,Intensity,69,333256,Status,Note On,Delta,0,Note,3octaveE,Intensity,75,333256,Status,Note Off,Delta,11,Note,3octaveF#,Intensity,0,333267,Status,Note Off,Delta,0,Note,3octaveE,Intensity,0,333267,Status,Note On,Delta,13,Note,3octaveF#,Intensity,25,333280,Status,Note Off,Delta,11,Note,3octaveF#,Intensity,0,333291,Status,Note On,Delta,13,Note,3octaveF#,Intensity,58,333304,Status,Note Off,Delta,11,Note,3octaveF#,Intensity,0,333315,Status,Note On,Delta,13,Note,3octaveF#,Intensity,18,333328,Status,Note Off,Delta,11,Note,3octaveF#,Intensity,0,333339,Status,Note On,Delta,13,Note,3octaveF#,Intensity,75,333352,
Status,Note On,Delta,0,Note,3octaveC,Intensity,85,333352,Status,Note Off,Delta,11,Note,3octaveF#,Intensity,0,333363,Status,Note Off,Delta,0,Note,3octaveC,Intensity,0,333363,Status,Note On,Delta,13,Note,3octaveF#,Intensity,10,333376,Status,Note Off,Delta,11,Note,3octaveF#,Intensity,0,333387,Status,Note On,Delta,13,Note,3octaveF#,Intensity,40,333400,Status,Note Off,Delta,11,Note,3octaveF#,Intensity,0,333411,Status,Note On,Delta,13,Note,3octaveF#,Intensity,56,333424,Status,Note Off,Delta,11,Note,3octaveF#,Intensity,0,333435,Status,Note On,Delta,13,Note,3octaveF#,Intensity,75,333448,Status,Note On,Delta,0,Note,3octaveE,Intensity,75,333448,Status,Note Off,Delta,11,Note,3octaveF#,Intensity,0,333459,Status,Note Off,Delta,0,Note,3octaveE,Intensity,0,333459,Status,Note On,Delta,13,Note,3octaveF#,Intensity,15,333472,Status,Note Off,Delta,11,Note,3octaveF#,Intensity,0,333483,Status,Note On,Delta,13,Note,3octaveF#,Intensity,44,333496,Status,Note Off,Delta,11,Note,3octaveF#,Intensity,0,333507,Status,Note On,Delta,13,Note,3octaveF#,Intensity,23,333520,Status,Note On,Delta,0,Note,3octaveC,Intensity,47,333520,Status,Note Off,Delta,11,Note,3octaveF#,Intensity,0,333531,Status,Note Off,Delta,0,Note,3octaveC,Intensity,0,333531,Status,Note On,Delta,13,Note,3octaveF#,Intensity,75,333544,Status,Note On,Delta,0,Note,3octaveC,Intensity,62,333544,Status,Note Off,Delta,11,Note,3octaveF#,Intensity,0,333555,Status,Note Off,Delta,0,Note,3octaveC,Intensity,0,333555,Status,Note On,Delta,13,Note,3octaveF#,Intensity,13,333568,Status,Note Off,Delta,11,Note,3octaveF#,Intensity,0,333579,Status,Note On,Delta,13,Note,3octaveF#,Intensity,51,333592,Status,Note Off,Delta,11,Note,3octaveF#,Intensity,0,333603,Status,Note On,Delta,13,Note,3octaveF#,Intensity,58,333616,Status,Note Off,Delta,11,Note,3octaveF#,Intensity,0,333627,Status,Note On,Delta,13,Note,3octaveF#,Intensity,69,333640,Status,Note On,Delta,0,Note,3octaveE,Intensity,75,333640,Status,Note Off,Delta,11,Note,3octaveF#,Intensity,0,333651,Status,Note Off,Delta,0,Note,3octaveE,Intensity,0,333651,Status,Note On,Delta,13,Note,3octaveF#,Intensity,25,333664,Status,Note Off,Delta,11,Note,3octaveF#,Intensity,0,333675,Status,Note On,Delta,13,Note,3octaveA#,Intensity,59,333688,Status,Note Off,Delta,11,Note,3octaveA#,Intensity,0,333699,Status,Note On,Delta,37,Note,3octaveF#,Intensity,75,333736,
Status,Note On,Delta,0,Note,3octaveC,Intensity,85,333736,Status,Note Off,Delta,11,Note,3octaveF#,Intensity,0,333747,Status,Note Off,Delta,0,Note,3octaveC,Intensity,0,333747,Status,Note On,Delta,13,Note,3octaveF#,Intensity,6,333760,Status,Note Off,Delta,11,Note,3octaveF#,Intensity,0,333771,Status,Note On,Delta,13,Note,3octaveF#,Intensity,32,333784,Status,Note Off,Delta,11,Note,3octaveF#,Intensity,0,333795,Status,Note On,Delta,13,Note,3octaveF#,Intensity,56,333808,Status,Note Off,Delta,11,Note,3octaveF#,Intensity,0,333819,Status,Note On,Delta,13,Note,3octaveF#,Intensity,75,333832,Status,Note On,Delta,0,Note,3octaveE,Intensity,75,333832,Status,Note Off,Delta,11,Note,3octaveF#,Intensity,0,333843,Status,Note Off,Delta,0,Note,3octaveE,Intensity,0,333843,Status,Note On,Delta,13,Note,3octaveF#,Intensity,13,333856,Status,Note Off,Delta,11,Note,3octaveF#,Intensity,0,333867,Status,Note On,Delta,13,Note,3octaveF#,Intensity,44,333880,Status,Note Off,Delta,11,Note,3octaveF#,Intensity,0,333891,Status,Note On,Delta,13,Note,3octaveF#,Intensity,23,333904,Status,Note On,Delta,0,Note,3octaveC,Intensity,56,333904,Status,Note Off,Delta,11,Note,3octaveF#,Intensity,0,333915,Status,Note Off,Delta,0,Note,3octaveC,Intensity,0,333915,Status,Note On,Delta,13,Note,3octaveF#,Intensity,75,333928,Status,Note On,Delta,0,Note,3octaveC,Intensity,68,333928,Status,Note Off,Delta,11,Note,3octaveF#,Intensity,0,333939,Status,Note Off,Delta,0,Note,3octaveC,Intensity,0,333939,Status,Note On,Delta,13,Note,3octaveF#,Intensity,13,333952,Status,Note Off,Delta,11,Note,3octaveF#,Intensity,0,333963,Status,Note On,Delta,13,Note,3octaveF#,Intensity,51,333976,Status,Note Off,Delta,11,Note,3octaveF#,Intensity,0,333987,Status,Note On,Delta,13,Note,3octaveF#,Intensity,58,334000,Status,Note Off,Delta,11,Note,3octaveF#,Intensity,0,334011,Status,Note On,Delta,13,Note,3octaveF#,Intensity,69,334024,Status,Note On,Delta,0,Note,3octaveE,Intensity,75,334024,Status,Note Off,Delta,11,Note,3octaveF#,Intensity,0,334035,Status,Note Off,Delta,0,Note,3octaveE,Intensity,0,334035,Status,Note On,Delta,13,Note,3octaveF#,Intensity,13,334048,Status,Note Off,Delta,11,Note,3octaveF#,Intensity,0,334059,Status,Note On,Delta,13,Note,3octaveF#,Intensity,58,334072,Status,Note Off,Delta,11,Note,3octaveF#,Intensity,0,334083,Status,Note On,Delta,13,Note,3octaveF#,Intensity,18,334096,Status,Note Off,Delta,11,Note,3octaveF#,Intensity,0,334107,Status,Note On,Delta,13,Note,3octaveF#,Intensity,75,334120,
Status,Note On,Delta,0,Note,3octaveC,Intensity,85,334120,Status,Note Off,Delta,11,Note,3octaveF#,Intensity,0,334131,Status,Note Off,Delta,0,Note,3octaveC,Intensity,0,334131,Status,Note On,Delta,13,Note,3octaveF#,Intensity,10,334144,Status,Note Off,Delta,11,Note,3octaveF#,Intensity,0,334155,Status,Note On,Delta,13,Note,3octaveF#,Intensity,40,334168,Status,Note Off,Delta,11,Note,3octaveF#,Intensity,0,334179,Status,Note On,Delta,13,Note,3octaveF#,Intensity,56,334192,Status,Note Off,Delta,11,Note,3octaveF#,Intensity,0,334203,Status,Note On,Delta,13,Note,3octaveF#,Intensity,75,334216,Status,Note On,Delta,0,Note,3octaveE,Intensity,75,334216,Status,Note Off,Delta,11,Note,3octaveF#,Intensity,0,334227,Status,Note Off,Delta,0,Note,3octaveE,Intensity,0,334227,Status,Note On,Delta,13,Note,3octaveF#,Intensity,8,334240,Status,Note Off,Delta,11,Note,3octaveF#,Intensity,0,334251,Status,Note On,Delta,13,Note,3octaveF#,Intensity,44,334264,Status,Note Off,Delta,11,Note,3octaveF#,Intensity,0,334275,Status,Note On,Delta,13,Note,3octaveF#,Intensity,23,334288,Status,Note On,Delta,0,Note,3octaveC,Intensity,52,334288,Status,Note Off,Delta,11,Note,3octaveF#,Intensity,0,334299,Status,Note Off,Delta,0,Note,3octaveC,Intensity,0,334299,Status,Note On,Delta,13,Note,3octaveF#,Intensity,75,334312,Status,Note On,Delta,0,Note,3octaveC,Intensity,66,334312,Status,Note Off,Delta,11,Note,3octaveF#,Intensity,0,334323,Status,Note Off,Delta,0,Note,3octaveC,Intensity,0,334323,Status,Note On,Delta,13,Note,3octaveF#,Intensity,17,334336,Status,Note Off,Delta,11,Note,3octaveF#,Intensity,0,334347,Status,Note On,Delta,13,Note,3octaveF#,Intensity,51,334360,Status,Note Off,Delta,11,Note,3octaveF#,Intensity,0,334371,Status,Note On,Delta,13,Note,3octaveF#,Intensity,58,334384,Status,Note Off,Delta,11,Note,3octaveF#,Intensity,0,334395,Status,Note On,Delta,13,Note,3octaveF#,Intensity,69,334408,Status,Note On,Delta,0,Note,3octaveE,Intensity,65,334408,Status,Note On,Delta,0,Note,3octaveC,Intensity,69,334408,Status,Note Off,Delta,11,Note,3octaveF#,Intensity,0,334419,Status,Note Off,Delta,0,Note,3octaveE,Intensity,0,334419,Status,Note Off,Delta,0,Note,3octaveC,Intensity,0,334419,Status,Note On,Delta,13,Note,3octaveF#,Intensity,11,334432,Status,Note Off,Delta,11,Note,3octaveF#,Intensity,0,334443,Status,Note On,Delta,13,Note,3octaveA#,Intensity,51,334456,Status,Note Off,Delta,11,Note,3octaveA#,Intensity,0,334467,Status,Note On,Delta,37,Note,3octaveF#,Intensity,75,334504,
Status,Note On,Delta,0,Note,3octaveC,Intensity,85,334504,Status,Note Off,Delta,11,Note,3octaveF#,Intensity,0,334515,Status,Note Off,Delta,0,Note,3octaveC,Intensity,0,334515,Status,Note On,Delta,13,Note,3octaveF#,Intensity,25,334528,Status,Note Off,Delta,11,Note,3octaveF#,Intensity,0,334539,Status,Note On,Delta,13,Note,3octaveF#,Intensity,40,334552,Status,Note Off,Delta,11,Note,3octaveF#,Intensity,0,334563,Status,Note On,Delta,13,Note,3octaveF#,Intensity,66,334576,Status,Note Off,Delta,11,Note,3octaveF#,Intensity,0,334587,Status,Note On,Delta,13,Note,3octaveF#,Intensity,46,334600,Status,Note On,Delta,0,Note,3octaveE,Intensity,75,334600,Status,Note Off,Delta,11,Note,3octaveF#,Intensity,0,334611,Status,Note Off,Delta,0,Note,3octaveE,Intensity,0,334611,Status,Note On,Delta,13,Note,3octaveF#,Intensity,59,334624,Status,Note Off,Delta,11,Note,3octaveF#,Intensity,0,334635,Status,Note On,Delta,13,Note,3octaveF#,Intensity,44,334648,Status,Note Off,Delta,11,Note,3octaveF#,Intensity,0,334659,Status,Note On,Delta,13,Note,3octaveF#,Intensity,23,334672,Status,Note On,Delta,0,Note,3octaveC,Intensity,47,334672,Status,Note Off,Delta,11,Note,3octaveF#,Intensity,0,334683,Status,Note Off,Delta,0,Note,3octaveC,Intensity,0,334683,Status,Note On,Delta,13,Note,3octaveF#,Intensity,75,334696,Status,Note On,Delta,0,Note,3octaveC,Intensity,74,334696,Status,Note Off,Delta,11,Note,3octaveF#,Intensity,0,334707,Status,Note Off,Delta,0,Note,3octaveC,Intensity,0,334707,Status,Note On,Delta,13,Note,3octaveF#,Intensity,11,334720,Status,Note Off,Delta,11,Note,3octaveF#,Intensity,0,334731,Status,Note On,Delta,13,Note,3octaveF#,Intensity,51,334744,Status,Note Off,Delta,11,Note,3octaveF#,Intensity,0,334755,Status,Note On,Delta,13,Note,3octaveF#,Intensity,58,334768,Status,Note Off,Delta,11,Note,3octaveF#,Intensity,0,334779,Status,Note On,Delta,13,Note,3octaveF#,Intensity,69,334792,Status,Note On,Delta,0,Note,3octaveE,Intensity,75,334792,Status,Note Off,Delta,11,Note,3octaveF#,Intensity,0,334803,Status,Note Off,Delta,0,Note,3octaveE,Intensity,0,334803,Status,Note On,Delta,13,Note,3octaveF#,Intensity,25,334816,Status,Note Off,Delta,11,Note,3octaveF#,Intensity,0,334827,Status,Note On,Delta,13,Note,3octaveF#,Intensity,58,334840,Status,Note Off,Delta,11,Note,3octaveF#,Intensity,0,334851,Status,Note On,Delta,13,Note,3octaveF#,Intensity,18,334864,Status,Note Off,Delta,11,Note,3octaveF#,Intensity,0,334875,Status,Note On,Delta,13,Note,3octaveF#,Intensity,75,334888,
Status,Note On,Delta,0,Note,3octaveC,Intensity,85,334888,Status,Note Off,Delta,11,Note,3octaveF#,Intensity,0,334899,Status,Note Off,Delta,0,Note,3octaveC,Intensity,0,334899,Status,Note On,Delta,13,Note,3octaveF#,Intensity,10,334912,Status,Note Off,Delta,11,Note,3octaveF#,Intensity,0,334923,Status,Note On,Delta,13,Note,3octaveF#,Intensity,40,334936,Status,Note Off,Delta,11,Note,3octaveF#,Intensity,0,334947,Status,Note On,Delta,13,Note,3octaveF#,Intensity,56,334960,Status,Note Off,Delta,11,Note,3octaveF#,Intensity,0,334971,Status,Note On,Delta,13,Note,3octaveF#,Intensity,75,334984,Status,Note On,Delta,0,Note,3octaveE,Intensity,75,334984,Status,Note Off,Delta,11,Note,3octaveF#,Intensity,0,334995,Status,Note Off,Delta,0,Note,3octaveE,Intensity,0,334995,Status,Note On,Delta,13,Note,3octaveF#,Intensity,15,335008,Status,Note Off,Delta,11,Note,3octaveF#,Intensity,0,335019,Status,Note On,Delta,13,Note,3octaveF#,Intensity,44,335032,Status,Note Off,Delta,11,Note,3octaveF#,Intensity,0,335043,Status,Note On,Delta,13,Note,3octaveF#,Intensity,23,335056,Status,Note On,Delta,0,Note,3octaveC,Intensity,47,335056,Status,Note Off,Delta,11,Note,3octaveF#,Intensity,0,335067,Status,Note Off,Delta,0,Note,3octaveC,Intensity,0,335067,Status,Note On,Delta,13,Note,3octaveF#,Intensity,75,335080,Status,Note On,Delta,0,Note,3octaveC,Intensity,62,335080,Status,Note Off,Delta,11,Note,3octaveF#,Intensity,0,335091,Status,Note Off,Delta,0,Note,3octaveC,Intensity,0,335091,Status,Note On,Delta,13,Note,3octaveF#,Intensity,13,335104,Status,Note Off,Delta,11,Note,3octaveF#,Intensity,0,335115,Status,Note On,Delta,13,Note,3octaveF#,Intensity,51,335128,Status,Note Off,Delta,11,Note,3octaveF#,Intensity,0,335139,Status,Note On,Delta,13,Note,3octaveF#,Intensity,58,335152,Status,Note Off,Delta,11,Note,3octaveF#,Intensity,0,335163,Status,Note On,Delta,13,Note,3octaveF#,Intensity,69,335176,Status,Note On,Delta,0,Note,3octaveE,Intensity,75,335176,Status,Note Off,Delta,11,Note,3octaveF#,Intensity,0,335187,Status,Note Off,Delta,0,Note,3octaveE,Intensity,0,335187,Status,Note On,Delta,13,Note,3octaveF#,Intensity,25,335200,Status,Note Off,Delta,11,Note,3octaveF#,Intensity,0,335211,Status,Note On,Delta,13,Note,3octaveA#,Intensity,59,335224,Status,Note Off,Delta,11,Note,3octaveA#,Intensity,0,335235,Status,Note On,Delta,37,Note,3octaveF#,Intensity,75,335272,
Status,Note On,Delta,0,Note,3octaveC,Intensity,85,335272,Status,Note Off,Delta,11,Note,3octaveF#,Intensity,0,335283,Status,Note Off,Delta,0,Note,3octaveC,Intensity,0,335283,Status,Note On,Delta,13,Note,3octaveF#,Intensity,6,335296,Status,Note Off,Delta,11,Note,3octaveF#,Intensity,0,335307,Status,Note On,Delta,13,Note,3octaveF#,Intensity,32,335320,Status,Note Off,Delta,11,Note,3octaveF#,Intensity,0,335331,Status,Note On,Delta,13,Note,3octaveF#,Intensity,56,335344,Status,Note Off,Delta,11,Note,3octaveF#,Intensity,0,335355,Status,Note On,Delta,13,Note,3octaveF#,Intensity,75,335368,Status,Note On,Delta,0,Note,3octaveE,Intensity,75,335368,Status,Note Off,Delta,11,Note,3octaveF#,Intensity,0,335379,Status,Note Off,Delta,0,Note,3octaveE,Intensity,0,335379,Status,Note On,Delta,13,Note,3octaveF#,Intensity,13,335392,Status,Note Off,Delta,11,Note,3octaveF#,Intensity,0,335403,Status,Note On,Delta,13,Note,3octaveA#,Intensity,55,335416,Status,Note Off,Delta,11,Note,3octaveA#,Intensity,0,335427,Status,Note On,Delta,13,Note,3octaveC,Intensity,56,335440,Status,Note Off,Delta,11,Note,3octaveC,Intensity,0,335451,Status,Note On,Delta,13,Note,3octaveF#,Intensity,75,335464,Status,Note On,Delta,0,Note,3octaveC,Intensity,68,335464,Status,Note Off,Delta,11,Note,3octaveF#,Intensity,0,335475,Status,Note Off,Delta,0,Note,3octaveC,Intensity,0,335475,Status,Note On,Delta,13,Note,3octaveF#,Intensity,13,335488,Status,Note Off,Delta,11,Note,3octaveF#,Intensity,0,335499,Status,Note On,Delta,13,Note,3octaveF#,Intensity,51,335512,Status,Note Off,Delta,11,Note,3octaveF#,Intensity,0,335523,Status,Note On,Delta,13,Note,3octaveF#,Intensity,58,335536,Status,Note Off,Delta,11,Note,3octaveF#,Intensity,0,335547,Status,Note On,Delta,13,Note,3octaveF#,Intensity,69,335560,Status,Note On,Delta,0,Note,3octaveE,Intensity,75,335560,Status,Note Off,Delta,11,Note,3octaveF#,Intensity,0,335571,Status,Note Off,Delta,0,Note,3octaveE,Intensity,0,335571,Status,Note On,Delta,13,Note,3octaveF#,Intensity,13,335584,Status,Note Off,Delta,11,Note,3octaveF#,Intensity,0,335595,Status,Note On,Delta,13,Note,3octaveF#,Intensity,58,335608,Status,Note Off,Delta,11,Note,3octaveF#,Intensity,0,335619,Status,Note On,Delta,13,Note,3octaveF#,Intensity,18,335632,Status,Note Off,Delta,11,Note,3octaveF#,Intensity,0,335643,Status,Note On,Delta,13,Note,3octaveF#,Intensity,75,335656,
Status,Note On,Delta,0,Note,3octaveC,Intensity,85,335656,Status,Note Off,Delta,11,Note,3octaveF#,Intensity,0,335667,Status,Note Off,Delta,0,Note,3octaveC,Intensity,0,335667,Status,Note On,Delta,13,Note,3octaveF#,Intensity,10,335680,Status,Note Off,Delta,11,Note,3octaveF#,Intensity,0,335691,Status,Note On,Delta,13,Note,3octaveF#,Intensity,40,335704,Status,Note Off,Delta,11,Note,3octaveF#,Intensity,0,335715,Status,Note On,Delta,13,Note,3octaveF#,Intensity,56,335728,Status,Note Off,Delta,11,Note,3octaveF#,Intensity,0,335739,Status,Note On,Delta,13,Note,3octaveF#,Intensity,75,335752,Status,Note On,Delta,0,Note,3octaveE,Intensity,75,335752,Status,Note Off,Delta,11,Note,3octaveF#,Intensity,0,335763,Status,Note Off,Delta,0,Note,3octaveE,Intensity,0,335763,Status,Note On,Delta,13,Note,3octaveF#,Intensity,8,335776,Status,Note Off,Delta,11,Note,3octaveF#,Intensity,0,335787,Status,Note On,Delta,13,Note,3octaveA#,Intensity,75,335800,Status,Note Off,Delta,11,Note,3octaveA#,Intensity,0,335811,Status,Note On,Delta,13,Note,3octaveC,Intensity,52,335824,Status,Note Off,Delta,11,Note,3octaveC,Intensity,0,335835,Status,Note On,Delta,13,Note,3octaveF#,Intensity,75,335848,Status,Note On,Delta,0,Note,3octaveC,Intensity,66,335848,Status,Note Off,Delta,11,Note,3octaveF#,Intensity,0,335859,Status,Note Off,Delta,0,Note,3octaveC,Intensity,0,335859,Status,Note On,Delta,13,Note,3octaveF#,Intensity,17,335872,Status,Note Off,Delta,11,Note,3octaveF#,Intensity,0,335883,Status,Note On,Delta,13,Note,3octaveF#,Intensity,51,335896,Status,Note Off,Delta,11,Note,3octaveF#,Intensity,0,335907,Status,Note On,Delta,13,Note,3octaveE,Intensity,40,335920,Status,Note Off,Delta,11,Note,3octaveE,Intensity,0,335931,Status,Note On,Delta,13,Note,3octaveE,Intensity,75,335944,Status,Note Off,Delta,11,Note,3octaveE,Intensity,0,335955,Status,Note On,Delta,37,Note,3octaveA#,Intensity,51,335992,Status,Note Off,Delta,11,Note,3octaveA#,Intensity,0,336003,Status,Note On,Delta,37,Note,3octaveF#,Intensity,75,336040,
Status,Note On,Delta,0,Note,3octaveC,Intensity,85,336040,Status,Note Off,Delta,11,Note,3octaveF#,Intensity,0,336051,Status,Note Off,Delta,0,Note,3octaveC,Intensity,0,336051,Status,Note On,Delta,37,Note,3octaveF#,Intensity,35,336088,Status,Note Off,Delta,11,Note,3octaveF#,Intensity,0,336099,Status,Note On,Delta,37,Note,3octaveF#,Intensity,49,336136,Status,Note On,Delta,0,Note,3octaveE,Intensity,75,336136,Status,Note Off,Delta,11,Note,3octaveF#,Intensity,0,336147,Status,Note Off,Delta,0,Note,3octaveE,Intensity,0,336147,Status,Note On,Delta,37,Note,3octaveF#,Intensity,37,336184,Status,Note Off,Delta,11,Note,3octaveF#,Intensity,0,336195,Status,Note On,Delta,37,Note,3octaveF#,Intensity,75,336232,Status,Note On,Delta,0,Note,3octaveC,Intensity,85,336232,Status,Note Off,Delta,11,Note,3octaveF#,Intensity,0,336243,Status,Note Off,Delta,0,Note,3octaveC,Intensity,0,336243,Status,Note On,Delta,37,Note,3octaveF#,Intensity,44,336280,Status,Note Off,Delta,11,Note,3octaveF#,Intensity,0,336291,Status,Note On,Delta,37,Note,3octaveF#,Intensity,54,336328,Status,Note On,Delta,0,Note,3octaveE,Intensity,75,336328,Status,Note Off,Delta,11,Note,3octaveF#,Intensity,0,336339,Status,Note Off,Delta,0,Note,3octaveE,Intensity,0,336339,Status,Note On,Delta,37,Note,3octaveF#,Intensity,37,336376,Status,Note Off,Delta,11,Note,3octaveF#,Intensity,0,336387,Status,Note On,Delta,37,Note,3octaveF#,Intensity,75,336424,
Status,Note On,Delta,0,Note,3octaveC,Intensity,85,336424,Status,Note Off,Delta,11,Note,3octaveF#,Intensity,0,336435,Status,Note Off,Delta,0,Note,3octaveC,Intensity,0,336435,Status,Note On,Delta,37,Note,3octaveF#,Intensity,44,336472,Status,Note Off,Delta,11,Note,3octaveF#,Intensity,0,336483,Status,Note On,Delta,37,Note,3octaveF#,Intensity,56,336520,Status,Note On,Delta,0,Note,3octaveE,Intensity,75,336520,Status,Note Off,Delta,11,Note,3octaveF#,Intensity,0,336531,Status,Note Off,Delta,0,Note,3octaveE,Intensity,0,336531,Status,Note On,Delta,37,Note,3octaveF#,Intensity,39,336568,Status,Note Off,Delta,11,Note,3octaveF#,Intensity,0,336579,Status,Note On,Delta,37,Note,3octaveF#,Intensity,75,336616,Status,Note On,Delta,0,Note,3octaveC,Intensity,85,336616,Status,Note Off,Delta,11,Note,3octaveF#,Intensity,0,336627,Status,Note Off,Delta,0,Note,3octaveC,Intensity,0,336627,Status,Note On,Delta,37,Note,3octaveF#,Intensity,46,336664,Status,Note Off,Delta,11,Note,3octaveF#,Intensity,0,336675,Status,Note On,Delta,37,Note,3octaveF#,Intensity,52,336712,Status,Note On,Delta,0,Note,3octaveE,Intensity,75,336712,Status,Note Off,Delta,11,Note,3octaveF#,Intensity,0,336723,Status,Note Off,Delta,0,Note,3octaveE,Intensity,0,336723,Status,Note On,Delta,37,Note,3octaveF#,Intensity,39,336760,Status,Note Off,Delta,11,Note,3octaveF#,Intensity,0,336771,Status,Note On,Delta,37,Note,3octaveF#,Intensity,75,336808,
Status,Note On,Delta,0,Note,3octaveC,Intensity,85,336808,Status,Note Off,Delta,11,Note,3octaveF#,Intensity,0,336819,Status,Note Off,Delta,0,Note,3octaveC,Intensity,0,336819,Status,Note On,Delta,37,Note,3octaveF#,Intensity,44,336856,Status,Note Off,Delta,11,Note,3octaveF#,Intensity,0,336867,Status,Note On,Delta,37,Note,3octaveF#,Intensity,58,336904,Status,Note On,Delta,0,Note,3octaveE,Intensity,75,336904,Status,Note Off,Delta,11,Note,3octaveF#,Intensity,0,336915,Status,Note Off,Delta,0,Note,3octaveE,Intensity,0,336915,Status,Note On,Delta,37,Note,3octaveF#,Intensity,35,336952,Status,Note Off,Delta,11,Note,3octaveF#,Intensity,0,336963,Status,Note On,Delta,37,Note,3octaveF#,Intensity,75,337000,Status,Note On,Delta,0,Note,3octaveC,Intensity,85,337000,Status,Note Off,Delta,11,Note,3octaveF#,Intensity,0,337011,Status,Note Off,Delta,0,Note,3octaveC,Intensity,0,337011,Status,Note On,Delta,37,Note,3octaveF#,Intensity,47,337048,Status,Note Off,Delta,11,Note,3octaveF#,Intensity,0,337059,Status,Note On,Delta,37,Note,3octaveF#,Intensity,59,337096,Status,Note On,Delta,0,Note,3octaveE,Intensity,75,337096,Status,Note Off,Delta,11,Note,3octaveF#,Intensity,0,337107,Status,Note Off,Delta,0,Note,3octaveE,Intensity,0,337107,Status,Note On,Delta,37,Note,3octaveF#,Intensity,44,337144,Status,Note Off,Delta,11,Note,3octaveF#,Intensity,0,337155,Status,Note On,Delta,37,Note,3octaveF#,Intensity,75,337192,
Status,Note On,Delta,0,Note,3octaveC,Intensity,85,337192,Status,Note Off,Delta,11,Note,3octaveF#,Intensity,0,337203,Status,Note Off,Delta,0,Note,3octaveC,Intensity,0,337203,Status,Note On,Delta,37,Note,3octaveF#,Intensity,37,337240,Status,Note Off,Delta,11,Note,3octaveF#,Intensity,0,337251,Status,Note On,Delta,37,Note,3octaveF#,Intensity,51,337288,Status,Note On,Delta,0,Note,3octaveE,Intensity,75,337288,Status,Note Off,Delta,11,Note,3octaveF#,Intensity,0,337299,Status,Note Off,Delta,0,Note,3octaveE,Intensity,0,337299,Status,Note On,Delta,37,Note,3octaveF#,Intensity,40,337336,Status,Note Off,Delta,11,Note,3octaveF#,Intensity,0,337347,Status,Note On,Delta,37,Note,3octaveF#,Intensity,75,337384,Status,Note On,Delta,0,Note,3octaveC,Intensity,85,337384,Status,Note Off,Delta,11,Note,3octaveF#,Intensity,0,337395,Status,Note Off,Delta,0,Note,3octaveC,Intensity,0,337395,Status,Note On,Delta,37,Note,3octaveF#,Intensity,40,337432,Status,Note Off,Delta,11,Note,3octaveF#,Intensity,0,337443,Status,Note On,Delta,37,Note,3octaveF#,Intensity,54,337480,Status,Note On,Delta,0,Note,3octaveE,Intensity,75,337480,Status,Note Off,Delta,11,Note,3octaveF#,Intensity,0,337491,Status,Note Off,Delta,0,Note,3octaveE,Intensity,0,337491,Status,Note On,Delta,37,Note,3octaveA#,Intensity,70,337528,Status,Note Off,Delta,11,Note,3octaveA#,Intensity,0,337539,Status,Note On,Delta,37,Note,3octaveF#,Intensity,75,337576,
Status,Note On,Delta,0,Note,3octaveC,Intensity,85,337576,Status,Note Off,Delta,11,Note,3octaveF#,Intensity,0,337587,Status,Note Off,Delta,0,Note,3octaveC,Intensity,0,337587,Status,Note On,Delta,37,Note,3octaveF#,Intensity,35,337624,Status,Note Off,Delta,11,Note,3octaveF#,Intensity,0,337635,Status,Note On,Delta,37,Note,3octaveF#,Intensity,49,337672,Status,Note On,Delta,0,Note,3octaveE,Intensity,75,337672,Status,Note Off,Delta,11,Note,3octaveF#,Intensity,0,337683,Status,Note Off,Delta,0,Note,3octaveE,Intensity,0,337683,Status,Note On,Delta,37,Note,3octaveF#,Intensity,37,337720,Status,Note Off,Delta,11,Note,3octaveF#,Intensity,0,337731,Status,Note On,Delta,37,Note,3octaveF#,Intensity,75,337768,Status,Note On,Delta,0,Note,3octaveC,Intensity,85,337768,Status,Note Off,Delta,11,Note,3octaveF#,Intensity,0,337779,Status,Note Off,Delta,0,Note,3octaveC,Intensity,0,337779,Status,Note On,Delta,37,Note,3octaveF#,Intensity,44,337816,Status,Note Off,Delta,11,Note,3octaveF#,Intensity,0,337827,Status,Note On,Delta,37,Note,3octaveF#,Intensity,54,337864,Status,Note On,Delta,0,Note,3octaveE,Intensity,75,337864,Status,Note Off,Delta,11,Note,3octaveF#,Intensity,0,337875,Status,Note Off,Delta,0,Note,3octaveE,Intensity,0,337875,Status,Note On,Delta,37,Note,3octaveF#,Intensity,37,337912,Status,Note Off,Delta,11,Note,3octaveF#,Intensity,0,337923,Status,Note On,Delta,37,Note,3octaveF#,Intensity,75,337960,
Status,Note On,Delta,0,Note,3octaveC,Intensity,85,337960,Status,Note Off,Delta,11,Note,3octaveF#,Intensity,0,337971,Status,Note Off,Delta,0,Note,3octaveC,Intensity,0,337971,Status,Note On,Delta,37,Note,3octaveF#,Intensity,44,338008,Status,Note Off,Delta,11,Note,3octaveF#,Intensity,0,338019,Status,Note On,Delta,37,Note,3octaveF#,Intensity,56,338056,Status,Note On,Delta,0,Note,3octaveE,Intensity,75,338056,Status,Note Off,Delta,11,Note,3octaveF#,Intensity,0,338067,Status,Note Off,Delta,0,Note,3octaveE,Intensity,0,338067,Status,Note On,Delta,37,Note,3octaveF#,Intensity,39,338104,Status,Note Off,Delta,11,Note,3octaveF#,Intensity,0,338115,Status,Note On,Delta,37,Note,3octaveF#,Intensity,75,338152,Status,Note On,Delta,0,Note,3octaveC,Intensity,85,338152,Status,Note Off,Delta,11,Note,3octaveF#,Intensity,0,338163,Status,Note Off,Delta,0,Note,3octaveC,Intensity,0,338163,Status,Note On,Delta,37,Note,3octaveF#,Intensity,46,338200,Status,Note Off,Delta,11,Note,3octaveF#,Intensity,0,338211,Status,Note On,Delta,37,Note,3octaveF#,Intensity,52,338248,Status,Note On,Delta,0,Note,3octaveE,Intensity,75,338248,Status,Note Off,Delta,11,Note,3octaveF#,Intensity,0,338259,Status,Note Off,Delta,0,Note,3octaveE,Intensity,0,338259,Status,Note On,Delta,37,Note,3octaveF#,Intensity,39,338296,Status,Note Off,Delta,11,Note,3octaveF#,Intensity,0,338307,Status,Note On,Delta,37,Note,3octaveF#,Intensity,75,338344,
Status,Note On,Delta,0,Note,3octaveC,Intensity,85,338344,Status,Note Off,Delta,11,Note,3octaveF#,Intensity,0,338355,Status,Note Off,Delta,0,Note,3octaveC,Intensity,0,338355,Status,Note On,Delta,37,Note,3octaveF#,Intensity,44,338392,Status,Note Off,Delta,11,Note,3octaveF#,Intensity,0,338403,Status,Note On,Delta,37,Note,3octaveF#,Intensity,58,338440,Status,Note On,Delta,0,Note,3octaveE,Intensity,75,338440,Status,Note Off,Delta,11,Note,3octaveF#,Intensity,0,338451,Status,Note Off,Delta,0,Note,3octaveE,Intensity,0,338451,Status,Note On,Delta,37,Note,3octaveF#,Intensity,35,338488,Status,Note Off,Delta,11,Note,3octaveF#,Intensity,0,338499,Status,Note On,Delta,37,Note,3octaveF#,Intensity,75,338536,Status,Note On,Delta,0,Note,3octaveC,Intensity,85,338536,Status,Note Off,Delta,11,Note,3octaveF#,Intensity,0,338547,Status,Note Off,Delta,0,Note,3octaveC,Intensity,0,338547,Status,Note On,Delta,37,Note,3octaveF#,Intensity,47,338584,Status,Note Off,Delta,11,Note,3octaveF#,Intensity,0,338595,Status,Note On,Delta,37,Note,3octaveF#,Intensity,59,338632,Status,Note On,Delta,0,Note,3octaveE,Intensity,75,338632,Status,Note Off,Delta,11,Note,3octaveF#,Intensity,0,338643,Status,Note Off,Delta,0,Note,3octaveE,Intensity,0,338643,Status,Note On,Delta,37,Note,3octaveF#,Intensity,44,338680,Status,Note Off,Delta,11,Note,3octaveF#,Intensity,0,338691,Status,Note On,Delta,37,Note,3octaveF#,Intensity,75,338728,
Status,Note On,Delta,0,Note,3octaveC,Intensity,85,338728,Status,Note Off,Delta,11,Note,3octaveF#,Intensity,0,338739,Status,Note Off,Delta,0,Note,3octaveC,Intensity,0,338739,Status,Note On,Delta,37,Note,3octaveF#,Intensity,37,338776,Status,Note Off,Delta,11,Note,3octaveF#,Intensity,0,338787,Status,Note On,Delta,37,Note,3octaveF#,Intensity,51,338824,Status,Note On,Delta,0,Note,3octaveE,Intensity,75,338824,Status,Note Off,Delta,11,Note,3octaveF#,Intensity,0,338835,Status,Note Off,Delta,0,Note,3octaveE,Intensity,0,338835,Status,Note On,Delta,37,Note,3octaveF#,Intensity,40,338872,Status,Note Off,Delta,11,Note,3octaveF#,Intensity,0,338883,Status,Note On,Delta,37,Note,3octaveF#,Intensity,75,338920,Status,Note On,Delta,0,Note,3octaveC,Intensity,85,338920,Status,Note Off,Delta,11,Note,3octaveF#,Intensity,0,338931,Status,Note Off,Delta,0,Note,3octaveC,Intensity,0,338931,Status,Note On,Delta,37,Note,3octaveF#,Intensity,40,338968,Status,Note Off,Delta,11,Note,3octaveF#,Intensity,0,338979,Status,Note On,Delta,37,Note,3octaveF#,Intensity,54,339016,Status,Note On,Delta,0,Note,3octaveE,Intensity,54,339016,Status,Note On,Delta,0,Note,3octaveC,Intensity,75,339016,Status,Note Off,Delta,11,Note,3octaveF#,Intensity,0,339027,Status,Note Off,Delta,0,Note,3octaveE,Intensity,0,339027,Status,Note Off,Delta,0,Note,3octaveC,Intensity,0,339027,Status,Note On,Delta,37,Note,3octaveA#,Intensity,70,339064,Status,Note Off,Delta,11,Note,3octaveA#,Intensity,0,339075,Status,Note On,Delta,37,Note,3octaveF#,Intensity,75,339112,
Status,Note On,Delta,0,Note,3octaveC,Intensity,85,339112,Status,Note Off,Delta,11,Note,3octaveF#,Intensity,0,339123,Status,Note Off,Delta,0,Note,3octaveC,Intensity,0,339123,Status,Note On,Delta,37,Note,3octaveF#,Intensity,35,339160,Status,Note Off,Delta,11,Note,3octaveF#,Intensity,0,339171,Status,Note On,Delta,37,Note,3octaveF#,Intensity,49,339208,Status,Note On,Delta,0,Note,3octaveE,Intensity,75,339208,Status,Note Off,Delta,11,Note,3octaveF#,Intensity,0,339219,Status,Note Off,Delta,0,Note,3octaveE,Intensity,0,339219,Status,Note On,Delta,37,Note,3octaveF#,Intensity,37,339256,Status,Note Off,Delta,11,Note,3octaveF#,Intensity,0,339267,Status,Note On,Delta,37,Note,3octaveF#,Intensity,75,339304,Status,Note On,Delta,0,Note,3octaveC,Intensity,85,339304,Status,Note Off,Delta,11,Note,3octaveF#,Intensity,0,339315,Status,Note Off,Delta,0,Note,3octaveC,Intensity,0,339315,Status,Note On,Delta,37,Note,3octaveF#,Intensity,44,339352,Status,Note Off,Delta,11,Note,3octaveF#,Intensity,0,339363,Status,Note On,Delta,37,Note,3octaveF#,Intensity,54,339400,Status,Note On,Delta,0,Note,3octaveE,Intensity,75,339400,Status,Note Off,Delta,11,Note,3octaveF#,Intensity,0,339411,Status,Note Off,Delta,0,Note,3octaveE,Intensity,0,339411,Status,Note On,Delta,37,Note,3octaveF#,Intensity,37,339448,Status,Note Off,Delta,11,Note,3octaveF#,Intensity,0,339459,Status,Note On,Delta,37,Note,3octaveF#,Intensity,75,339496,
Status,Note On,Delta,0,Note,3octaveC,Intensity,85,339496,Status,Note Off,Delta,11,Note,3octaveF#,Intensity,0,339507,Status,Note Off,Delta,0,Note,3octaveC,Intensity,0,339507,Status,Note On,Delta,37,Note,3octaveF#,Intensity,44,339544,Status,Note Off,Delta,11,Note,3octaveF#,Intensity,0,339555,Status,Note On,Delta,37,Note,3octaveF#,Intensity,56,339592,Status,Note On,Delta,0,Note,3octaveE,Intensity,75,339592,Status,Note Off,Delta,11,Note,3octaveF#,Intensity,0,339603,Status,Note Off,Delta,0,Note,3octaveE,Intensity,0,339603,Status,Note On,Delta,37,Note,3octaveF#,Intensity,39,339640,Status,Note Off,Delta,11,Note,3octaveF#,Intensity,0,339651,Status,Note On,Delta,37,Note,3octaveF#,Intensity,75,339688,Status,Note On,Delta,0,Note,3octaveC,Intensity,85,339688,Status,Note Off,Delta,11,Note,3octaveF#,Intensity,0,339699,Status,Note Off,Delta,0,Note,3octaveC,Intensity,0,339699,Status,Note On,Delta,37,Note,3octaveF#,Intensity,46,339736,Status,Note Off,Delta,11,Note,3octaveF#,Intensity,0,339747,Status,Note On,Delta,37,Note,3octaveF#,Intensity,52,339784,Status,Note On,Delta,0,Note,3octaveE,Intensity,75,339784,Status,Note Off,Delta,11,Note,3octaveF#,Intensity,0,339795,Status,Note Off,Delta,0,Note,3octaveE,Intensity,0,339795,Status,Note On,Delta,37,Note,3octaveF#,Intensity,39,339832,Status,Note Off,Delta,11,Note,3octaveF#,Intensity,0,339843,Status,Note On,Delta,37,Note,3octaveF#,Intensity,75,339880,
Status,Note On,Delta,0,Note,3octaveC,Intensity,85,339880,Status,Note Off,Delta,11,Note,3octaveF#,Intensity,0,339891,Status,Note Off,Delta,0,Note,3octaveC,Intensity,0,339891,Status,Note On,Delta,37,Note,3octaveF#,Intensity,44,339928,Status,Note Off,Delta,11,Note,3octaveF#,Intensity,0,339939,Status,Note On,Delta,37,Note,3octaveF#,Intensity,58,339976,Status,Note On,Delta,0,Note,3octaveE,Intensity,75,339976,Status,Note Off,Delta,11,Note,3octaveF#,Intensity,0,339987,Status,Note Off,Delta,0,Note,3octaveE,Intensity,0,339987,Status,Note On,Delta,37,Note,3octaveF#,Intensity,35,340024,Status,Note Off,Delta,11,Note,3octaveF#,Intensity,0,340035,Status,Note On,Delta,37,Note,3octaveF#,Intensity,75,340072,Status,Note On,Delta,0,Note,3octaveC,Intensity,85,340072,Status,Note Off,Delta,11,Note,3octaveF#,Intensity,0,340083,Status,Note Off,Delta,0,Note,3octaveC,Intensity,0,340083,Status,Note On,Delta,37,Note,3octaveF#,Intensity,47,340120,Status,Note Off,Delta,11,Note,3octaveF#,Intensity,0,340131,Status,Note On,Delta,37,Note,3octaveF#,Intensity,59,340168,Status,Note On,Delta,0,Note,3octaveE,Intensity,75,340168,Status,Note Off,Delta,11,Note,3octaveF#,Intensity,0,340179,Status,Note Off,Delta,0,Note,3octaveE,Intensity,0,340179,Status,Note On,Delta,37,Note,3octaveF#,Intensity,44,340216,Status,Note Off,Delta,11,Note,3octaveF#,Intensity,0,340227,Status,Note On,Delta,37,Note,3octaveF#,Intensity,75,340264,
Status,Note On,Delta,0,Note,3octaveC,Intensity,85,340264,Status,Note Off,Delta,11,Note,3octaveF#,Intensity,0,340275,Status,Note Off,Delta,0,Note,3octaveC,Intensity,0,340275,Status,Note On,Delta,37,Note,3octaveF#,Intensity,37,340312,Status,Note Off,Delta,11,Note,3octaveF#,Intensity,0,340323,Status,Note On,Delta,37,Note,3octaveF#,Intensity,51,340360,Status,Note On,Delta,0,Note,3octaveE,Intensity,75,340360,Status,Note Off,Delta,11,Note,3octaveF#,Intensity,0,340371,Status,Note Off,Delta,0,Note,3octaveE,Intensity,0,340371,Status,Note On,Delta,37,Note,3octaveF#,Intensity,40,340408,Status,Note Off,Delta,11,Note,3octaveF#,Intensity,0,340419,Status,Note On,Delta,37,Note,3octaveF#,Intensity,75,340456,Status,Note On,Delta,0,Note,3octaveC,Intensity,85,340456,Status,Note On,Delta,0,Note,3octaveE,Intensity,75,340456,Status,Note Off,Delta,11,Note,3octaveF#,Intensity,0,340467,Status,Note Off,Delta,0,Note,3octaveC,Intensity,0,340467,Status,Note Off,Delta,0,Note,3octaveE,Intensity,0,340467,Status,Note On,Delta,37,Note,3octaveF#,Intensity,40,340504,Status,Note Off,Delta,11,Note,3octaveF#,Intensity,0,340515,Status,Note On,Delta,37,Note,3octaveF#,Intensity,54,340552,Status,Note On,Delta,0,Note,3octaveE,Intensity,75,340552,Status,Note Off,Delta,11,Note,3octaveF#,Intensity,0,340563,Status,Note Off,Delta,0,Note,3octaveE,Intensity,0,340563,Status,Note On,Delta,37,Note,3octaveA#,Intensity,70,340600,Status,Note Off,Delta,11,Note,3octaveA#,Intensity,0,340611,Status,Note On,Delta,37,Note,3octaveC,Intensity,85,340648,
Status,Note Off,Delta,11,Note,3octaveC,Intensity,0,340659,Status,Note On,Delta,37,Note,3octaveF#,Intensity,90,340696,Status,Note Off,Delta,11,Note,3octaveF#,Intensity,0,340707,Status,Note On,Delta,37,Note,3octaveE,Intensity,75,340744,Status,Note Off,Delta,11,Note,3octaveE,Intensity,0,340755,Status,Note On,Delta,37,Note,3octaveF#,Intensity,90,340792,Status,Note Off,Delta,11,Note,3octaveF#,Intensity,0,340803,Status,Note On,Delta,37,Note,3octaveC,Intensity,85,340840,Status,Note Off,Delta,11,Note,3octaveC,Intensity,0,340851,Status,Note On,Delta,37,Note,3octaveF#,Intensity,90,340888,Status,Note Off,Delta,11,Note,3octaveF#,Intensity,0,340899,Status,Note On,Delta,37,Note,3octaveE,Intensity,75,340936,Status,Note Off,Delta,11,Note,3octaveE,Intensity,0,340947,Status,Note On,Delta,37,Note,3octaveF#,Intensity,90,340984,Status,Note Off,Delta,11,Note,3octaveF#,Intensity,0,340995,Status,Note On,Delta,37,Note,3octaveC,Intensity,85,341032,
Status,Note Off,Delta,11,Note,3octaveC,Intensity,0,341043,Status,Note On,Delta,37,Note,3octaveF#,Intensity,90,341080,Status,Note Off,Delta,11,Note,3octaveF#,Intensity,0,341091,Status,Note On,Delta,37,Note,3octaveE,Intensity,75,341128,Status,Note Off,Delta,11,Note,3octaveE,Intensity,0,341139,Status,Note On,Delta,37,Note,3octaveF#,Intensity,90,341176,Status,Note Off,Delta,11,Note,3octaveF#,Intensity,0,341187,Status,Note On,Delta,37,Note,3octaveC,Intensity,85,341224,Status,Note Off,Delta,11,Note,3octaveC,Intensity,0,341235,Status,Note On,Delta,37,Note,3octaveF#,Intensity,90,341272,Status,Note Off,Delta,11,Note,3octaveF#,Intensity,0,341283,Status,Note On,Delta,37,Note,3octaveE,Intensity,75,341320,Status,Note Off,Delta,11,Note,3octaveE,Intensity,0,341331,Status,Note On,Delta,37,Note,3octaveF#,Intensity,90,341368,Status,Note Off,Delta,11,Note,3octaveF#,Intensity,0,341379,Status,Note On,Delta,37,Note,3octaveC,Intensity,85,341416,
Status,Note On,Delta,0,Note,3octaveF#,Intensity,75,341416,Status,Note Off,Delta,11,Note,3octaveC,Intensity,0,341427,Status,Note Off,Delta,0,Note,3octaveF#,Intensity,0,341427,Status,Note On,Delta,37,Note,3octaveF#,Intensity,56,341464,Status,Note Off,Delta,11,Note,3octaveF#,Intensity,0,341475,Status,Note On,Delta,37,Note,3octaveC,Intensity,69,341512,Status,Note On,Delta,0,Note,3octaveE,Intensity,75,341512,Status,Note On,Delta,0,Note,3octaveF#,Intensity,75,341512,Status,Note Off,Delta,11,Note,3octaveC,Intensity,0,341523,Status,Note Off,Delta,0,Note,3octaveE,Intensity,0,341523,Status,Note Off,Delta,0,Note,3octaveF#,Intensity,0,341523,Status,Note On,Delta,37,Note,3octaveF#,Intensity,56,341560,Status,Note Off,Delta,11,Note,3octaveF#,Intensity,0,341571,Status,Note On,Delta,37,Note,3octaveC,Intensity,85,341608,Status,Note On,Delta,0,Note,3octaveF#,Intensity,75,341608,Status,Note Off,Delta,11,Note,3octaveC,Intensity,0,341619,Status,Note Off,Delta,0,Note,3octaveF#,Intensity,0,341619,Status,Note On,Delta,37,Note,3octaveF#,Intensity,54,341656,Status,Note Off,Delta,11,Note,3octaveF#,Intensity,0,341667,Status,Note On,Delta,37,Note,3octaveC,Intensity,85,341704,Status,Note On,Delta,0,Note,3octaveA,Intensity,75,341704,Status,Note Off,Delta,11,Note,3octaveC,Intensity,0,341715,Status,Note Off,Delta,0,Note,3octaveA,Intensity,0,341715,Status,Note On,Delta,37,Note,3octaveC,Intensity,66,341752,Status,Note On,Delta,0,Note,3octaveG,Intensity,75,341752,Status,Note On,Delta,0,Note,4octaveC#,Intensity,65,341752,Status,Note Off,Delta,11,Note,3octaveC,Intensity,0,341763,Status,Note Off,Delta,0,Note,3octaveG,Intensity,0,341763,Status,Note Off,Delta,0,Note,4octaveC#,Intensity,0,341763,Status,Note On,Delta,133,Note,3octaveC,Intensity,85,341896,
Status,Note Off,Delta,11,Note,3octaveC,Intensity,0,341907,Status,Note On,Delta,85,Note,3octaveC,Intensity,85,341992,Status,Note Off,Delta,11,Note,3octaveC,Intensity,0,342003,Status,Note On,Delta,85,Note,3octaveF#,Intensity,75,342088,Status,Note On,Delta,0,Note,3octaveC,Intensity,90,342088,Status,Note Off,Delta,11,Note,3octaveF#,Intensity,0,342099,Status,Note Off,Delta,0,Note,3octaveC,Intensity,0,342099,Status,Note On,Delta,37,Note,3octaveA#,Intensity,75,342136,Status,Note Off,Delta,11,Note,3octaveA#,Intensity,0,342147,Status,Note On,Delta,37,Note,3octaveF#,Intensity,75,342184,Status,Note On,Delta,0,Note,3octaveC,Intensity,85,342184,Status,Note Off,Delta,11,Note,3octaveF#,Intensity,0,342195,Status,Note Off,Delta,0,Note,3octaveC,Intensity,0,342195,Status,Note On,Delta,13,Note,3octaveF#,Intensity,25,342208,Status,Note Off,Delta,11,Note,3octaveF#,Intensity,0,342219,Status,Note On,Delta,13,Note,3octaveF#,Intensity,40,342232,Status,Note Off,Delta,11,Note,3octaveF#,Intensity,0,342243,Status,Note On,Delta,13,Note,3octaveF#,Intensity,66,342256,Status,Note Off,Delta,11,Note,3octaveF#,Intensity,0,342267,Status,Note On,Delta,13,Note,3octaveF#,Intensity,46,342280,
Status,Note On,Delta,0,Note,3octaveE,Intensity,75,342280,Status,Note Off,Delta,11,Note,3octaveF#,Intensity,0,342291,Status,Note Off,Delta,0,Note,3octaveE,Intensity,0,342291,Status,Note On,Delta,13,Note,3octaveF#,Intensity,59,342304,Status,Note Off,Delta,11,Note,3octaveF#,Intensity,0,342315,Status,Note On,Delta,13,Note,3octaveF#,Intensity,44,342328,Status,Note Off,Delta,11,Note,3octaveF#,Intensity,0,342339,Status,Note On,Delta,13,Note,3octaveF#,Intensity,23,342352,Status,Note On,Delta,0,Note,3octaveC,Intensity,47,342352,Status,Note Off,Delta,11,Note,3octaveF#,Intensity,0,342363,Status,Note Off,Delta,0,Note,3octaveC,Intensity,0,342363,Status,Note On,Delta,13,Note,3octaveF#,Intensity,75,342376,Status,Note On,Delta,0,Note,3octaveC,Intensity,74,342376,Status,Note Off,Delta,11,Note,3octaveF#,Intensity,0,342387,Status,Note Off,Delta,0,Note,3octaveC,Intensity,0,342387,Status,Note On,Delta,13,Note,3octaveF#,Intensity,11,342400,Status,Note Off,Delta,11,Note,3octaveF#,Intensity,0,342411,Status,Note On,Delta,13,Note,3octaveF#,Intensity,51,342424,Status,Note Off,Delta,11,Note,3octaveF#,Intensity,0,342435,Status,Note On,Delta,13,Note,3octaveF#,Intensity,58,342448,Status,Note Off,Delta,11,Note,3octaveF#,Intensity,0,342459,Status,Note On,Delta,13,Note,3octaveD#,Intensity,88,342472,Status,Note On,Delta,0,Note,3octaveF#,Intensity,69,342472,Status,Note On,Delta,0,Note,3octaveE,Intensity,75,342472,Status,Note Off,Delta,11,Note,3octaveD#,Intensity,0,342483,Status,Note Off,Delta,0,Note,3octaveF#,Intensity,0,342483,Status,Note Off,Delta,0,Note,3octaveE,Intensity,0,342483,Status,Note On,Delta,13,Note,3octaveF#,Intensity,25,342496,Status,Note Off,Delta,11,Note,3octaveF#,Intensity,0,342507,Status,Note On,Delta,13,Note,3octaveF#,Intensity,58,342520,Status,Note Off,Delta,11,Note,3octaveF#,Intensity,0,342531,Status,Note On,Delta,13,Note,3octaveF#,Intensity,18,342544,Status,Note Off,Delta,11,Note,3octaveF#,Intensity,0,342555,Status,Note On,Delta,13,Note,3octaveF#,Intensity,75,342568,Status,Note On,Delta,0,Note,3octaveC,Intensity,85,342568,Status,Note Off,Delta,11,Note,3octaveF#,Intensity,0,342579,Status,Note Off,Delta,0,Note,3octaveC,Intensity,0,342579,Status,Note On,Delta,13,Note,3octaveF#,Intensity,10,342592,Status,Note Off,Delta,11,Note,3octaveF#,Intensity,0,342603,Status,Note On,Delta,13,Note,3octaveF#,Intensity,40,342616,Status,Note Off,Delta,11,Note,3octaveF#,Intensity,0,342627,Status,Note On,Delta,13,Note,3octaveF#,Intensity,56,342640,Status,Note Off,Delta,11,Note,3octaveF#,Intensity,0,342651,Status,Note On,Delta,13,Note,3octaveF#,Intensity,75,342664,
Status,Note On,Delta,0,Note,3octaveE,Intensity,75,342664,Status,Note Off,Delta,11,Note,3octaveF#,Intensity,0,342675,Status,Note Off,Delta,0,Note,3octaveE,Intensity,0,342675,Status,Note On,Delta,13,Note,3octaveF#,Intensity,15,342688,Status,Note Off,Delta,11,Note,3octaveF#,Intensity,0,342699,Status,Note On,Delta,13,Note,3octaveF#,Intensity,44,342712,Status,Note Off,Delta,11,Note,3octaveF#,Intensity,0,342723,Status,Note On,Delta,13,Note,3octaveF#,Intensity,23,342736,Status,Note On,Delta,0,Note,3octaveC,Intensity,47,342736,Status,Note Off,Delta,11,Note,3octaveF#,Intensity,0,342747,Status,Note Off,Delta,0,Note,3octaveC,Intensity,0,342747,Status,Note On,Delta,13,Note,3octaveF#,Intensity,75,342760,Status,Note On,Delta,0,Note,3octaveC,Intensity,62,342760,Status,Note Off,Delta,11,Note,3octaveF#,Intensity,0,342771,Status,Note Off,Delta,0,Note,3octaveC,Intensity,0,342771,Status,Note On,Delta,13,Note,3octaveF#,Intensity,13,342784,Status,Note Off,Delta,11,Note,3octaveF#,Intensity,0,342795,Status,Note On,Delta,13,Note,3octaveF#,Intensity,51,342808,Status,Note Off,Delta,11,Note,3octaveF#,Intensity,0,342819,Status,Note On,Delta,13,Note,3octaveF#,Intensity,58,342832,Status,Note Off,Delta,11,Note,3octaveF#,Intensity,0,342843,Status,Note On,Delta,13,Note,3octaveD#,Intensity,84,342856,Status,Note On,Delta,0,Note,3octaveF#,Intensity,69,342856,Status,Note On,Delta,0,Note,3octaveE,Intensity,75,342856,Status,Note Off,Delta,11,Note,3octaveD#,Intensity,0,342867,Status,Note Off,Delta,0,Note,3octaveF#,Intensity,0,342867,Status,Note Off,Delta,0,Note,3octaveE,Intensity,0,342867,Status,Note On,Delta,13,Note,3octaveF#,Intensity,25,342880,Status,Note Off,Delta,11,Note,3octaveF#,Intensity,0,342891,Status,Note On,Delta,13,Note,3octaveA#,Intensity,59,342904,Status,Note Off,Delta,11,Note,3octaveA#,Intensity,0,342915,Status,Note On,Delta,37,Note,3octaveF#,Intensity,75,342952,Status,Note On,Delta,0,Note,3octaveC,Intensity,85,342952,Status,Note Off,Delta,11,Note,3octaveF#,Intensity,0,342963,Status,Note Off,Delta,0,Note,3octaveC,Intensity,0,342963,Status,Note On,Delta,13,Note,3octaveF#,Intensity,6,342976,Status,Note Off,Delta,11,Note,3octaveF#,Intensity,0,342987,Status,Note On,Delta,13,Note,3octaveF#,Intensity,32,343000,Status,Note Off,Delta,11,Note,3octaveF#,Intensity,0,343011,Status,Note On,Delta,13,Note,3octaveF#,Intensity,56,343024,Status,Note Off,Delta,11,Note,3octaveF#,Intensity,0,343035,Status,Note On,Delta,13,Note,3octaveF#,Intensity,75,343048,
Status,Note On,Delta,0,Note,3octaveE,Intensity,75,343048,Status,Note Off,Delta,11,Note,3octaveF#,Intensity,0,343059,Status,Note Off,Delta,0,Note,3octaveE,Intensity,0,343059,Status,Note On,Delta,13,Note,3octaveF#,Intensity,13,343072,Status,Note Off,Delta,11,Note,3octaveF#,Intensity,0,343083,Status,Note On,Delta,13,Note,3octaveF#,Intensity,44,343096,Status,Note Off,Delta,11,Note,3octaveF#,Intensity,0,343107,Status,Note On,Delta,13,Note,3octaveF#,Intensity,23,343120,Status,Note On,Delta,0,Note,3octaveC,Intensity,56,343120,Status,Note Off,Delta,11,Note,3octaveF#,Intensity,0,343131,Status,Note Off,Delta,0,Note,3octaveC,Intensity,0,343131,Status,Note On,Delta,13,Note,3octaveF#,Intensity,75,343144,Status,Note On,Delta,0,Note,3octaveC,Intensity,68,343144,Status,Note Off,Delta,11,Note,3octaveF#,Intensity,0,343155,Status,Note Off,Delta,0,Note,3octaveC,Intensity,0,343155,Status,Note On,Delta,13,Note,3octaveF#,Intensity,13,343168,Status,Note Off,Delta,11,Note,3octaveF#,Intensity,0,343179,Status,Note On,Delta,13,Note,3octaveF#,Intensity,51,343192,Status,Note Off,Delta,11,Note,3octaveF#,Intensity,0,343203,Status,Note On,Delta,13,Note,3octaveF#,Intensity,58,343216,Status,Note Off,Delta,11,Note,3octaveF#,Intensity,0,343227,Status,Note On,Delta,13,Note,3octaveD#,Intensity,88,343240,Status,Note On,Delta,0,Note,3octaveF#,Intensity,69,343240,Status,Note On,Delta,0,Note,3octaveE,Intensity,75,343240,Status,Note Off,Delta,11,Note,3octaveD#,Intensity,0,343251,Status,Note Off,Delta,0,Note,3octaveF#,Intensity,0,343251,Status,Note Off,Delta,0,Note,3octaveE,Intensity,0,343251,Status,Note On,Delta,13,Note,3octaveF#,Intensity,13,343264,Status,Note Off,Delta,11,Note,3octaveF#,Intensity,0,343275,Status,Note On,Delta,13,Note,3octaveF#,Intensity,58,343288,Status,Note Off,Delta,11,Note,3octaveF#,Intensity,0,343299,Status,Note On,Delta,13,Note,3octaveF#,Intensity,18,343312,Status,Note Off,Delta,11,Note,3octaveF#,Intensity,0,343323,Status,Note On,Delta,13,Note,3octaveF#,Intensity,75,343336,Status,Note On,Delta,0,Note,3octaveC,Intensity,85,343336,Status,Note Off,Delta,11,Note,3octaveF#,Intensity,0,343347,Status,Note Off,Delta,0,Note,3octaveC,Intensity,0,343347,Status,Note On,Delta,13,Note,3octaveF#,Intensity,10,343360,Status,Note Off,Delta,11,Note,3octaveF#,Intensity,0,343371,Status,Note On,Delta,13,Note,3octaveF#,Intensity,40,343384,Status,Note Off,Delta,11,Note,3octaveF#,Intensity,0,343395,Status,Note On,Delta,13,Note,3octaveF#,Intensity,56,343408,Status,Note Off,Delta,11,Note,3octaveF#,Intensity,0,343419,Status,Note On,Delta,13,Note,3octaveF#,Intensity,75,343432,
Status,Note On,Delta,0,Note,3octaveE,Intensity,75,343432,Status,Note Off,Delta,11,Note,3octaveF#,Intensity,0,343443,Status,Note Off,Delta,0,Note,3octaveE,Intensity,0,343443,Status,Note On,Delta,13,Note,3octaveF#,Intensity,8,343456,Status,Note Off,Delta,11,Note,3octaveF#,Intensity,0,343467,Status,Note On,Delta,13,Note,3octaveF#,Intensity,44,343480,Status,Note Off,Delta,11,Note,3octaveF#,Intensity,0,343491,Status,Note On,Delta,13,Note,3octaveF#,Intensity,23,343504,Status,Note On,Delta,0,Note,3octaveC,Intensity,52,343504,Status,Note Off,Delta,11,Note,3octaveF#,Intensity,0,343515,Status,Note Off,Delta,0,Note,3octaveC,Intensity,0,343515,Status,Note On,Delta,13,Note,3octaveF#,Intensity,75,343528,Status,Note On,Delta,0,Note,3octaveC,Intensity,66,343528,Status,Note Off,Delta,11,Note,3octaveF#,Intensity,0,343539,Status,Note Off,Delta,0,Note,3octaveC,Intensity,0,343539,Status,Note On,Delta,13,Note,3octaveF#,Intensity,17,343552,Status,Note Off,Delta,11,Note,3octaveF#,Intensity,0,343563,Status,Note On,Delta,13,Note,3octaveF#,Intensity,51,343576,Status,Note Off,Delta,11,Note,3octaveF#,Intensity,0,343587,Status,Note On,Delta,13,Note,3octaveF#,Intensity,58,343600,Status,Note Off,Delta,11,Note,3octaveF#,Intensity,0,343611,Status,Note On,Delta,13,Note,3octaveD#,Intensity,88,343624,Status,Note On,Delta,0,Note,3octaveF#,Intensity,69,343624,Status,Note On,Delta,0,Note,3octaveE,Intensity,65,343624,Status,Note On,Delta,0,Note,3octaveC,Intensity,69,343624,Status,Note Off,Delta,11,Note,3octaveD#,Intensity,0,343635,Status,Note Off,Delta,0,Note,3octaveF#,Intensity,0,343635,Status,Note Off,Delta,0,Note,3octaveE,Intensity,0,343635,Status,Note Off,Delta,0,Note,3octaveC,Intensity,0,343635,Status,Note On,Delta,13,Note,3octaveF#,Intensity,11,343648,Status,Note Off,Delta,11,Note,3octaveF#,Intensity,0,343659,Status,Note On,Delta,13,Note,3octaveA#,Intensity,51,343672,Status,Note Off,Delta,11,Note,3octaveA#,Intensity,0,343683,Status,Note On,Delta,37,Note,3octaveF#,Intensity,75,343720,Status,Note On,Delta,0,Note,3octaveC,Intensity,85,343720,Status,Note Off,Delta,11,Note,3octaveF#,Intensity,0,343731,Status,Note Off,Delta,0,Note,3octaveC,Intensity,0,343731,Status,Note On,Delta,13,Note,3octaveF#,Intensity,25,343744,Status,Note Off,Delta,11,Note,3octaveF#,Intensity,0,343755,Status,Note On,Delta,13,Note,3octaveF#,Intensity,40,343768,Status,Note Off,Delta,11,Note,3octaveF#,Intensity,0,343779,Status,Note On,Delta,13,Note,3octaveF#,Intensity,66,343792,Status,Note Off,Delta,11,Note,3octaveF#,Intensity,0,343803,Status,Note On,Delta,13,Note,3octaveF#,Intensity,46,343816,
Status,Note On,Delta,0,Note,3octaveE,Intensity,75,343816,Status,Note Off,Delta,11,Note,3octaveF#,Intensity,0,343827,Status,Note Off,Delta,0,Note,3octaveE,Intensity,0,343827,Status,Note On,Delta,13,Note,3octaveF#,Intensity,59,343840,Status,Note Off,Delta,11,Note,3octaveF#,Intensity,0,343851,Status,Note On,Delta,13,Note,3octaveF#,Intensity,44,343864,Status,Note Off,Delta,11,Note,3octaveF#,Intensity,0,343875,Status,Note On,Delta,13,Note,3octaveF#,Intensity,23,343888,Status,Note On,Delta,0,Note,3octaveC,Intensity,47,343888,Status,Note Off,Delta,11,Note,3octaveF#,Intensity,0,343899,Status,Note Off,Delta,0,Note,3octaveC,Intensity,0,343899,Status,Note On,Delta,13,Note,3octaveF#,Intensity,75,343912,Status,Note On,Delta,0,Note,3octaveC,Intensity,74,343912,Status,Note Off,Delta,11,Note,3octaveF#,Intensity,0,343923,Status,Note Off,Delta,0,Note,3octaveC,Intensity,0,343923,Status,Note On,Delta,13,Note,3octaveF#,Intensity,11,343936,Status,Note Off,Delta,11,Note,3octaveF#,Intensity,0,343947,Status,Note On,Delta,13,Note,3octaveF#,Intensity,51,343960,Status,Note Off,Delta,11,Note,3octaveF#,Intensity,0,343971,Status,Note On,Delta,13,Note,3octaveF#,Intensity,58,343984,Status,Note Off,Delta,11,Note,3octaveF#,Intensity,0,343995,Status,Note On,Delta,13,Note,3octaveD#,Intensity,88,344008,Status,Note On,Delta,0,Note,3octaveF#,Intensity,69,344008,Status,Note On,Delta,0,Note,3octaveE,Intensity,75,344008,Status,Note Off,Delta,11,Note,3octaveD#,Intensity,0,344019,Status,Note Off,Delta,0,Note,3octaveF#,Intensity,0,344019,Status,Note Off,Delta,0,Note,3octaveE,Intensity,0,344019,Status,Note On,Delta,13,Note,3octaveF#,Intensity,25,344032,Status,Note Off,Delta,11,Note,3octaveF#,Intensity,0,344043,Status,Note On,Delta,13,Note,3octaveF#,Intensity,58,344056,Status,Note Off,Delta,11,Note,3octaveF#,Intensity,0,344067,Status,Note On,Delta,13,Note,3octaveF#,Intensity,18,344080,Status,Note Off,Delta,11,Note,3octaveF#,Intensity,0,344091,Status,Note On,Delta,13,Note,3octaveF#,Intensity,75,344104,Status,Note On,Delta,0,Note,3octaveC,Intensity,85,344104,Status,Note Off,Delta,11,Note,3octaveF#,Intensity,0,344115,Status,Note Off,Delta,0,Note,3octaveC,Intensity,0,344115,Status,Note On,Delta,13,Note,3octaveF#,Intensity,10,344128,Status,Note Off,Delta,11,Note,3octaveF#,Intensity,0,344139,Status,Note On,Delta,13,Note,3octaveF#,Intensity,40,344152,Status,Note Off,Delta,11,Note,3octaveF#,Intensity,0,344163,Status,Note On,Delta,13,Note,3octaveF#,Intensity,56,344176,Status,Note Off,Delta,11,Note,3octaveF#,Intensity,0,344187,Status,Note On,Delta,13,Note,3octaveF#,Intensity,75,344200,
Status,Note On,Delta,0,Note,3octaveE,Intensity,75,344200,Status,Note Off,Delta,11,Note,3octaveF#,Intensity,0,344211,Status,Note Off,Delta,0,Note,3octaveE,Intensity,0,344211,Status,Note On,Delta,13,Note,3octaveF#,Intensity,15,344224,Status,Note Off,Delta,11,Note,3octaveF#,Intensity,0,344235,Status,Note On,Delta,13,Note,3octaveF#,Intensity,44,344248,Status,Note Off,Delta,11,Note,3octaveF#,Intensity,0,344259,Status,Note On,Delta,13,Note,3octaveF#,Intensity,23,344272,Status,Note On,Delta,0,Note,3octaveC,Intensity,47,344272,Status,Note Off,Delta,11,Note,3octaveF#,Intensity,0,344283,Status,Note Off,Delta,0,Note,3octaveC,Intensity,0,344283,Status,Note On,Delta,13,Note,3octaveF#,Intensity,75,344296,Status,Note On,Delta,0,Note,3octaveC,Intensity,62,344296,Status,Note Off,Delta,11,Note,3octaveF#,Intensity,0,344307,Status,Note Off,Delta,0,Note,3octaveC,Intensity,0,344307,Status,Note On,Delta,13,Note,3octaveF#,Intensity,13,344320,Status,Note Off,Delta,11,Note,3octaveF#,Intensity,0,344331,Status,Note On,Delta,13,Note,3octaveF#,Intensity,51,344344,Status,Note Off,Delta,11,Note,3octaveF#,Intensity,0,344355,Status,Note On,Delta,13,Note,3octaveF#,Intensity,58,344368,Status,Note Off,Delta,11,Note,3octaveF#,Intensity,0,344379,Status,Note On,Delta,13,Note,3octaveD#,Intensity,84,344392,Status,Note On,Delta,0,Note,3octaveF#,Intensity,69,344392,Status,Note On,Delta,0,Note,3octaveE,Intensity,75,344392,Status,Note Off,Delta,11,Note,3octaveD#,Intensity,0,344403,Status,Note Off,Delta,0,Note,3octaveF#,Intensity,0,344403,Status,Note Off,Delta,0,Note,3octaveE,Intensity,0,344403,Status,Note On,Delta,13,Note,3octaveF#,Intensity,25,344416,Status,Note Off,Delta,11,Note,3octaveF#,Intensity,0,344427,Status,Note On,Delta,13,Note,3octaveA#,Intensity,59,344440,Status,Note Off,Delta,11,Note,3octaveA#,Intensity,0,344451,Status,Note On,Delta,37,Note,3octaveF#,Intensity,75,344488,Status,Note On,Delta,0,Note,3octaveC,Intensity,85,344488,Status,Note Off,Delta,11,Note,3octaveF#,Intensity,0,344499,Status,Note Off,Delta,0,Note,3octaveC,Intensity,0,344499,Status,Note On,Delta,13,Note,3octaveF#,Intensity,6,344512,Status,Note Off,Delta,11,Note,3octaveF#,Intensity,0,344523,Status,Note On,Delta,13,Note,3octaveF#,Intensity,32,344536,Status,Note Off,Delta,11,Note,3octaveF#,Intensity,0,344547,Status,Note On,Delta,13,Note,3octaveF#,Intensity,56,344560,Status,Note Off,Delta,11,Note,3octaveF#,Intensity,0,344571,Status,Note On,Delta,13,Note,3octaveF#,Intensity,75,344584,
